[{"meetingName":"A CHANCE TO LIVE AGAIN","locationName":"SRO Building","meetingAddress":"109 WEST 129TH STREET, NEW YORK, NY","accessiblity":"Wheelchair access","meetingDetails":{"day":"Wednesday","startTime":"6:00 PM /b>","endTime":"7:00 PM","meetingType":"BB = Big Book meeting","specialInterest":""},"latLong":{"lat":40.810754,"lng":-73.94408200000001}},{"meetingName":"AA IT WORKS II","locationName":"Union Baptist Church","meetingAddress":"240 WEST 145TH STREET, NEW YORK, NY","accessiblity":"Wheelchair access","meetingDetails":{"day":"Tuesday","startTime":"10:00 AM","endTime":"11:00 AM","meetingType":"OD = Open Discussion meeting","specialInterest":""},"latLong":{"lat":40.822095,"lng":-73.940901}},{"meetingName":"ATTITUDE ADJUSTMENT","locationName":"Upper Manhattan Mental Health Center","meetingAddress":"1727 AMSTERDAM AVENUE, NEW YORK, NY","accessiblity":"Wheelchair access","meetingDetails":{"day":"Saturday","startTime":"8:45 AM /b","endTime":"9:45 AM","meetingType":"OD = Open Discussion meeting","specialInterest":""},"latLong":{"lat":40.8255358,"lng":-73.94690729999999}},{"meetingName":"CONVENT","locationName":"St. Phillip Church","meetingAddress":"204 WEST 134TH STREET, NEW YORK, NY","accessiblity":"","meetingDetails":{"day":"Saturday","startTime":"11:30 AM /","endTime":"1:00 PM","meetingType":"OD = Open Discussion meeting","specialInterest":""},"latLong":{"lat":40.8147275,"lng":-73.94488249999999}},{"meetingName":"FELLOWSHIP AT NOON","locationName":"Spiritual Renewal Church","meetingAddress":"2044 ADAM CLAYTON POWELL BLVD., NEW YORK, NY","accessiblity":"","meetingDetails":{"day":"Monday","startTime":"12:15 PM <b>to","endTime":"1:15 PM","meetingType":"B = Beginners meeting","specialInterest":""},"latLong":{"lat":40.807284,"lng":-73.94995949999999}},{"meetingName":"GRUPO TRASMITELO","locationName":"","meetingAddress":"469 WEST 142ND STREET, NEW YORK, NY","accessiblity":"","meetingDetails":{"day":"Thursday","startTime":"8:00 PM /b","endTime":"9:00 PM","meetingType":"B = Beginners meeting","specialInterest":""},"latLong":{"lat":40.823305,"lng":-73.948402}},{"meetingName":"HARLEM HUMANISTS","locationName":"St. Mary's Episcopal","meetingAddress":"521 W 126TH ST, NEW YORK, NY","accessiblity":"Wheelchair access","meetingDetails":{"day":"Monday","startTime":"12:00 PM <b>to","endTime":"1:00 PM","meetingType":"O = Open meeting  br><b>Special","specialInterest":"Agnostic"},"latLong":{"lat":40.8149314,"lng":-73.95603419999999}},{"meetingName":"KEEP IT SIMPLE (KISS)","locationName":"SRO Building Community Room","meetingAddress":"109 WEST 129TH STREET, NEW YORK, NY","accessiblity":"Wheelchair access","meetingDetails":{"day":"Sunday","startTime":"5:30 PM","endTime":"6:30 PM","meetingType":"S = Step meeting \r\n\t\t\t \t\t\t br>","specialInterest":""},"latLong":{"lat":40.810754,"lng":-73.94408200000001}},{"meetingName":"LEARNING TO LIVE SOBER","locationName":"Our Lady of Lourdes","meetingAddress":"469 WEST 142ND STREET, NEW YORK, NY","accessiblity":"","meetingDetails":{"day":"Thursday","startTime":"6:00 PM /b","endTime":"7:00 PM","meetingType":"BB = Big Book meeting","specialInterest":""},"latLong":{"lat":40.823305,"lng":-73.948402}},{"meetingName":"LIVING CLEAN AND SOBER ON 121ST STREET","locationName":"","meetingAddress":"2044 SEVENTH AVENUE, NEW YORK, NY","accessiblity":"Wheelchair access","meetingDetails":{"day":"Sunday","startTime":"6:00 PM","endTime":"7:30 PM","meetingType":"B = Beginners meeting","specialInterest":""},"latLong":{"lat":40.8072001,"lng":-73.94977279999999}},{"meetingName":"MEDITATION COMES TO HARLEM","locationName":"S.A.G.E.","meetingAddress":"127 WEST 127TH STREET, NEW YORK, NY","accessiblity":"Wheelchair access","meetingDetails":{"day":"Monday","startTime":"4:30 PM","endTime":"5:30 PM","meetingType":"C = Closed Discussion meeting","specialInterest":""},"latLong":{"lat":40.8097951,"lng":-73.9457359}},{"meetingName":"ARLEM - MID-HARLEM","locationName":"Grace Congregational Baptist Church","meetingAddress":"310 WEST 139TH STREET, NEW YORK, NY","accessiblity":"","meetingDetails":{"day":"Monday","startTime":"7:00 PM","endTime":"8:00 PM","meetingType":"S = Step meeting \r\n\t\t\t \t\t\t br>","specialInterest":""},"latLong":{"lat":40.8191397,"lng":-73.9454617}},{"meetingName":"MONDAY NIGHT CHALLENGE","locationName":"St. James Church","meetingAddress":"409 WEST 141ST STREET, NEW YORK, NY","accessiblity":"","meetingDetails":{"day":"Monday","startTime":"7:00 PM","endTime":"8:00 PM","meetingType":"B = Beginners meeting","specialInterest":""},"latLong":{"lat":40.821654,"lng":-73.946333}},{"meetingName":"PRIMARY PURPOSE","locationName":"Riverside Church","meetingAddress":"91 CLAREMONT AVENUE, NEW YORK, NY","accessiblity":"Wheelchair access","meetingDetails":{"day":"Sunday","startTime":"3:00 PM","endTime":"4:00 PM","meetingType":"OD = Open Discussion meeting","specialInterest":""},"latLong":{"lat":40.8118487,"lng":-73.9631608}},{"meetingName":"PROMISES TWO FOR ONE","locationName":"Upper Manhattan Mental Health Center","meetingAddress":"1727 AMSTERDAM AVENUE, NEW YORK, NY","accessiblity":"Wheelchair access","meetingDetails":{"day":"Sunday","startTime":"9:30 AM","endTime":"10:30 AM","meetingType":"B = Beginners meeting","specialInterest":""},"latLong":{"lat":40.8255358,"lng":-73.94690729999999}},{"meetingName":"REALITY CHECK","locationName":"Our Lady of Lourdes Church","meetingAddress":"469 WEST 142ND STREET, NEW YORK, NY","accessiblity":"","meetingDetails":{"day":"Saturday","startTime":"5:00 PM /b","endTime":"6:00 PM","meetingType":"OD = Open Discussion meeting  b","specialInterest":"Men>"},"latLong":{"lat":40.823305,"lng":-73.948402}},{"meetingName":"RIVERSIDE","locationName":"Riverside Church","meetingAddress":"91 CLAREMONT AVENUE, NEW YORK, NY","accessiblity":"Wheelchair access","meetingDetails":{"day":"Monday","startTime":"7:00 PM","endTime":"8:00 PM","meetingType":"C = Closed Discussion meeting","specialInterest":""},"latLong":{"lat":40.8118487,"lng":-73.9631608}},{"meetingName":"RIVERTON","locationName":"St. Aloysius School","meetingAddress":"219 WEST 132ND STREET, NEW YORK, NY","accessiblity":"","meetingDetails":{"day":"Saturday","startTime":"3:00 PM /b","endTime":"4:00 PM","meetingType":"B = Beginners meeting","specialInterest":""},"latLong":{"lat":40.813952,"lng":-73.9458681}},{"meetingName":"SALEM","locationName":"Salem United Methodist Church Community Center","meetingAddress":"211 WEST 129TH STREET, NEW YORK, NY","accessiblity":"Wheelchair access","meetingDetails":{"day":"Wednesday","startTime":"7:30 PM /b>","endTime":"8:30 PM","meetingType":"C = Closed Discussion meeting","specialInterest":""},"latLong":{"lat":40.812,"lng":-73.947053}},{"meetingName":"SOBER ADULT MEN","locationName":"Convent Baptist Church Education Building","meetingAddress":"425 WEST 144TH STREET, NEW YORK, NY","accessiblity":"Wheelchair access","meetingDetails":{"day":"Wednesday","startTime":"7:00 PM /b>","endTime":"8:00 PM","meetingType":"C = Closed Discussion meeting","specialInterest":"Men>"},"latLong":{"lat":40.8239567,"lng":-73.9462233}},{"meetingName":"ST. NICHOLAS","locationName":"St. Phillip's Church","meetingAddress":"204 WEST 134TH STREET, NEW YORK, NY","accessiblity":"Wheelchair access","meetingDetails":{"day":"Sunday","startTime":"4:00 PM","endTime":"5:00 PM","meetingType":"O = Open meeting \r\n\t\t\t \t\t\t br>","specialInterest":""},"latLong":{"lat":40.8147275,"lng":-73.94488249999999}},{"meetingName":"STEPS THREE-ELEVEN","locationName":"Harlem Hospital King Pavilion","meetingAddress":"506 LENOX AVENUE, NEW YORK, NY","accessiblity":"Wheelchair access","meetingDetails":{"day":"Sunday","startTime":"2:00 PM","endTime":"3:00 PM","meetingType":"B = Beginners meeting","specialInterest":""},"latLong":{"lat":40.8142282,"lng":-73.94018729999999}},{"meetingName":"SUGAR HILL","locationName":"Council Center for Problems of Living","meetingAddress":"1727 AMSTERDAM AVENUE, NEW YORK, NY","accessiblity":"Wheelchair access","meetingDetails":{"day":"Friday","startTime":"5:30 PM","endTime":"6:30 PM","meetingType":"B = Beginners meeting","specialInterest":""},"latLong":{"lat":40.8255358,"lng":-73.94690729999999}},{"meetingName":"TUESDAY BIG BOOK STUDY","locationName":"","meetingAddress":"1854 AMSTERDAM AVENUE, NEW YORK, NY","accessiblity":"","meetingDetails":{"day":"Tuesday","startTime":"6:00 PM /","endTime":"7:00 PM","meetingType":"BB = Big Book meeting","specialInterest":""},"latLong":{"lat":40.82964,"lng":-73.94479299999999}},{"meetingName":"UPTOWN BIG BOOK WORKSHOP","locationName":"Our Lady of Lourdes Church","meetingAddress":"469 WEST 142ND STREET, NEW YORK, NY","accessiblity":"","meetingDetails":{"day":"Saturday","startTime":"9:30 AM /b","endTime":"11:00 AM","meetingType":"BB = Big Book meeting  br><b>Spe","specialInterest":"Big Book Workshop"},"latLong":{"lat":40.823305,"lng":-73.948402}},{"meetingName":"YOU MAY CARE AFTER","locationName":"Metropolitan AME Church","meetingAddress":"58-66 WEST 135TH STREET, NEW YORK, NY","accessiblity":"Wheelchair access","meetingDetails":{"day":"Tuesday","startTime":"6:30 PM /","endTime":"7:30 PM","meetingType":"S = Step meeting \r\n\t\t\t \t\t\t br>","specialInterest":""},"latLong":{"lat":40.81388159999999,"lng":-73.9403249}}]